,City,Cloudiness,Country,Date,Humidity,Lat,Lng,Max Temp,Wind Speed
0,Nyurba,98,RU,1605322890,95,63.28,118.33,12.83,4.68
1,Ushuaia,40,AR,1605322651,70,-54.8,-68.3,42.8,28.86
2,Avarua,58,CK,1605322698,69,-21.21,-159.78,78.8,6.93
3,Marrakesh,40,MA,1605322891,82,31.63,-8.01,64.4,4.7
4,Payo,100,ID,1605322891,58,-3.75,103.64,90.66,1.79
5,Waipawa,0,NZ,1605322891,63,-41.41,175.52,64.4,27.51
6,Lorengau,67,PG,1605322892,73,-2.02,147.27,84.97,7.63
7,Albany,49,US,1605322704,75,42.6,-73.97,44.01,5.03
8,Butaritari,59,KI,1605322892,67,3.07,172.79,81.68,8.7
9,Shache,65,CN,1605322892,46,38.42,77.24,41.83,5.28
10,La Ronge,100,CA,1605322893,92,55.1,-105.28,14.0,1.12
11,Mataura,95,NZ,1605322893,49,-46.19,168.86,68.0,15.01
12,Conceição da Barra,100,BR,1605322894,82,-18.59,-39.73,74.7,9.4
13,Deputatsky,0,RU,1605322894,88,69.3,139.9,-13.31,1.45
14,Hasaki,0,JP,1605322894,48,35.73,140.83,64.0,10.29
15,Rikitea,25,PF,1605322894,80,-23.12,-134.97,75.76,11.97
16,Yellowknife,90,CA,1605322681,77,62.46,-114.35,3.2,9.17
17,Vaini,75,TO,1605322895,78,-21.2,-175.2,82.4,9.17
18,Jamestown,90,US,1605322852,86,42.1,-79.24,42.01,4.7
19,Hermanus,82,ZA,1605322896,85,-34.42,19.23,59.0,1.01
20,Kalmunai,60,LK,1605322896,80,7.42,81.82,81.23,10.47
21,Lamesa,90,US,1605322896,58,32.74,-101.95,53.6,6.93
22,Busselton,23,AU,1605322897,58,-33.65,115.33,70.0,18.1
23,Bredasdorp,27,ZA,1605322897,87,-34.53,20.04,51.8,3.36
24,Beringovskiy,99,RU,1605322897,94,63.05,179.32,14.7,17.07
25,Vieques,40,PR,1605322898,83,18.43,-65.83,78.8,3.36
26,Saint George,1,US,1605322881,32,37.1,-113.58,53.6,0.94
27,Uvalde,40,US,1605322898,78,29.37,-99.77,73.0,4.7
28,Monduli,75,TZ,1605322899,93,-3.3,36.45,62.6,5.95
29,Khatanga,100,RU,1605322899,89,71.97,102.5,-15.83,7.78
30,Los Llanos de Aridane,75,ES,1605322899,94,28.66,-17.92,71.6,14.99
31,Cape Town,40,ZA,1605322844,77,-33.93,18.42,62.01,3.36
32,Ribeira Grande,83,PT,1605322900,89,38.52,-28.7,66.16,12.8
33,Saint-Philippe,0,RE,1605322900,73,-21.36,55.77,77.0,5.82
34,Bluff,98,NZ,1605322901,49,-46.6,168.33,68.0,15.01
35,Macao,20,MO,1605322744,64,22.2,113.55,77.0,14.99
36,Caibarién,20,CU,1605322901,94,22.52,-79.47,77.0,4.7
37,Namatanai,45,PG,1605322902,70,-3.67,152.43,85.21,7.4
38,Ginir,52,ET,1605322902,70,7.13,40.7,53.24,5.53
39,Chokurdakh,39,RU,1605322902,89,70.63,147.92,-17.19,4.21
40,Sayyan,7,YE,1605322903,64,15.17,44.32,43.32,3.2
41,Grindavik,75,IS,1605322903,80,63.84,-22.43,35.6,16.11
42,Eyl,47,SO,1605322903,78,7.98,49.82,76.05,9.26
43,Port Alfred,4,ZA,1605322904,72,-33.59,26.89,67.17,21.72
44,Berdigestyakh,100,RU,1605322904,96,62.1,126.7,15.22,3.38
45,Arlit,0,NE,1605322904,28,18.74,7.39,69.73,7.67
46,Ağdaş,90,AZ,1605322904,93,40.65,47.48,42.8,2.24
47,Plouzané,90,FR,1605322905,87,48.38,-4.62,57.2,19.46
48,Esperance,90,AU,1605322905,88,-33.87,121.9,62.6,14.99
49,Acapulco de Juárez,40,MX,1605322822,74,16.86,-99.89,84.2,3.36
50,East London,8,ZA,1605322906,68,-33.02,27.91,68.54,12.35
51,Pingdingshan,8,CN,1605322906,45,33.74,113.3,62.08,4.36
52,Hilo,90,US,1605322420,83,19.73,-155.09,75.2,4.7
53,Pevek,97,RU,1605322906,95,69.7,170.31,4.75,7.9
54,Chui,23,UY,1605322907,96,-33.7,-53.46,61.63,3.22
55,Bhālki,0,IN,1605322907,72,18.03,77.22,73.92,4.81
56,Coquimbo,4,CL,1605322907,76,-29.95,-71.34,57.2,5.82
57,Qaqortoq,100,GL,1605322908,61,60.72,-46.03,17.6,3.36
58,Arona,75,ES,1605322908,68,28.1,-16.68,73.99,5.82
59,Meulaboh,100,ID,1605322653,84,4.14,96.13,79.48,3.87
60,Saskylakh,84,RU,1605322908,90,71.92,114.08,-8.64,2.21
61,Buraidah,0,SA,1605322909,87,26.33,43.98,60.8,4.7
62,Bajil,11,YE,1605322909,82,15.06,43.29,76.5,2.1
63,Ngunguru,0,NZ,1605322909,64,-35.62,174.5,65.25,10.67
64,Boende,95,CD,1605322909,98,-0.22,20.87,69.75,1.07
65,Rincon,1,US,1605322699,88,32.3,-81.24,68.0,3.36
66,Hithadhoo,100,MV,1605322910,77,-0.6,73.08,82.92,18.9
67,Ubari,0,LY,1605322910,62,26.59,12.78,55.74,6.67
68,Saint-François,90,FR,1605322911,100,46.42,3.91,41.0,2.24
69,Half Moon Bay,90,US,1605322911,100,37.46,-122.43,57.99,8.05
70,New Norfolk,72,AU,1605322912,55,-42.78,147.06,68.0,4.0
71,Severo-Kuril'sk,99,RU,1605322912,92,50.68,156.12,43.61,15.93
72,Coromandel,96,BR,1605322912,91,-18.47,-47.2,67.1,2.28
73,Atuona,25,PF,1605322913,77,-9.8,-139.03,77.65,16.24
74,Christchurch,5,NZ,1605322913,24,-43.53,172.63,78.8,13.87
75,Upernavik,100,GL,1605322913,93,72.79,-56.15,16.75,11.16
76,Carballo,75,ES,1605322913,72,43.21,-8.69,60.8,10.29
77,Alta Floresta,100,BR,1605322794,93,-9.88,-56.09,70.59,1.97
78,São Filipe,16,CV,1605322914,67,14.9,-24.5,80.19,4.29
79,Verkhnevilyuysk,94,RU,1605322915,96,63.45,120.32,13.51,2.8
80,Hobart,75,AU,1605322785,42,-42.88,147.33,68.0,10.29
81,Yangjiang,94,CN,1605322915,37,21.85,111.97,80.01,10.56
82,Jiuquan,11,CN,1605322916,57,39.74,98.52,42.58,3.74
83,Haukipudas,90,FI,1605322916,77,65.18,25.35,37.4,8.05
84,Makat,35,KZ,1605322916,93,47.65,53.35,27.73,8.66
85,Belyy Yar,0,RU,1605322917,85,53.6,91.39,15.8,2.95
86,Muli,100,MV,1605322917,78,2.92,73.57,82.31,10.51
87,Port Elizabeth,90,ZA,1605322918,93,-33.92,25.57,62.6,17.22
88,Katsuura,0,JP,1605322918,45,35.13,140.3,64.4,12.75
89,Sarangani,87,PH,1605322918,75,5.4,125.46,84.2,18.79
90,San Miguel de Tucumán,40,AR,1605322798,73,-26.82,-65.22,77.0,13.87
91,Sokolovyy,78,RU,1605322919,76,51.57,45.83,32.0,8.99
92,San Patricio,40,US,1605322919,88,28.02,-97.52,75.2,9.17
93,Baykit,91,RU,1605322919,92,61.67,96.37,9.77,4.16
94,La Unión,60,PE,1605322920,78,-5.4,-80.75,64.71,10.4
95,Saint Paul Harbor,20,US,1605322920,47,57.79,-152.41,37.4,6.93
96,San Ramon,90,US,1605322921,100,37.78,-121.98,55.99,5.82
97,Punta Arenas,40,CL,1605322921,86,-53.15,-70.92,39.2,23.04
98,Bol'shoye Selo,100,RU,1605322922,97,57.72,38.93,32.59,2.19
99,Freeport,1,US,1605322922,87,40.66,-73.58,46.99,4.7
100,Tuktoyaktuk,90,CA,1605322922,84,69.45,-133.04,-0.4,16.11
101,Gympie,0,AU,1605322880,49,-26.19,152.66,89.01,3.0
102,Nikolskoye,75,RU,1605322922,95,59.7,30.79,33.01,4.47
103,Prainha,90,BR,1605322923,90,-1.8,-53.48,75.27,2.19
104,Beloha,0,MG,1605322923,82,-25.17,45.05,64.26,11.23
105,Cidreira,0,BR,1605322923,93,-30.18,-50.21,69.39,11.39
106,Nicoya,0,CR,1605322923,94,10.15,-85.45,77.0,5.82
107,Kavieng,51,PG,1605322924,76,-2.57,150.8,84.38,11.16
108,Wetaskiwin,100,CA,1605322924,85,52.97,-113.37,24.01,3.36
109,Hobyo,69,SO,1605322924,74,5.35,48.53,78.26,13.35
110,Alta,61,NO,1605322925,81,69.97,23.27,33.01,27.51
111,Airai,0,TL,1605322925,39,-8.93,125.41,82.17,3.85
112,Dutlwe,76,BW,1605322925,45,-23.98,23.9,70.83,11.25
113,Burriana,98,ES,1605322926,91,39.89,-0.09,57.0,2.19
114,Dingle,12,PH,1605322926,75,11.0,122.67,86.05,11.74
115,Grand Gaube,0,MU,1605322926,85,-20.01,57.66,75.99,5.39
116,Kailua,75,US,1605322752,74,21.4,-157.74,79.0,12.75
117,Provideniya,0,RU,1605322927,90,64.38,-173.3,19.78,9.44
118,Kapaa,20,US,1605322927,74,22.08,-159.32,80.6,16.11
119,Polyarnyye Zori,100,RU,1605322927,100,67.37,32.5,33.01,6.15
120,Castro,5,BR,1605322847,94,-24.79,-50.01,61.48,3.94
121,Shaunavon,100,CA,1605322928,74,49.65,-108.42,30.2,16.11
122,Hofn,87,IS,1605322928,69,64.25,-15.21,40.51,12.66
123,Dongsheng,70,CN,1605322928,56,39.82,109.98,46.24,15.5
124,Bintulu,40,MY,1605322928,83,3.17,113.03,84.2,3.36
125,Zhezkazgan,90,KZ,1605322929,85,47.8,67.71,24.8,17.9
126,Ponta do Sol,40,PT,1605322929,94,32.67,-17.1,69.8,12.75
127,Çorum Province,16,TR,1605322929,69,40.5,34.75,37.96,1.45
128,Caravelas,98,BR,1605322930,85,-17.71,-39.25,74.84,9.62
129,Kresttsy,100,RU,1605322931,92,58.25,32.52,35.78,1.81
130,Yumen,55,CN,1605322931,58,40.28,97.2,40.68,12.12
131,Bubaque,0,GW,1605322931,67,11.28,-15.83,84.06,7.85
132,Ishigaki,75,JP,1605322931,73,24.34,124.16,75.2,23.04
133,Bowen,53,AU,1605322932,46,-20.02,148.23,91.4,10.29
134,Goundam,0,ML,1605322932,20,16.41,-3.67,74.19,9.75
135,Aklavik,0,CA,1605322932,83,68.22,-135.01,-2.2,3.36
136,Anklam,98,DE,1605322933,93,53.86,13.69,46.0,1.99
137,Denpasar,40,ID,1605322933,74,-8.65,115.22,87.8,10.29
138,Wasilla,90,US,1605322858,92,61.58,-149.44,28.99,1.36
139,Cuenca,75,EC,1605322805,54,-2.88,-78.98,55.4,5.82
140,Zhigansk,87,RU,1605322934,95,66.77,123.37,9.1,4.0
141,Garden City,75,US,1605322802,59,42.33,-83.33,37.4,10.29
142,Atkinson,40,US,1605322934,93,42.84,-71.15,39.2,4.54
143,Chalmette,1,US,1605322935,56,29.94,-89.96,69.8,3.36
144,Bambous Virieux,75,MU,1605322935,94,-20.34,57.76,75.99,8.05
145,Mkushi,100,ZM,1605322935,77,-13.62,29.39,63.23,6.82
146,Aasiaat,99,GL,1605322936,92,68.71,-52.87,18.72,9.22
147,Kaitangata,92,NZ,1605322936,42,-46.28,169.85,69.12,4.99
148,Codrington,88,AU,1605322936,67,-38.27,141.97,58.93,9.13
149,Bonthe,0,SL,1605322936,86,7.53,-12.51,77.79,0.94
150,Vostok,7,RU,1605322937,94,46.49,135.88,31.26,3.42
151,Makeni,0,SL,1605322937,74,8.88,-12.05,68.63,1.66
152,Cessnock,0,AU,1605322937,32,-32.83,151.35,84.99,1.99
153,Faya,0,SA,1605322938,47,18.39,42.45,57.2,1.05
154,Thompson,90,CA,1605322808,100,55.74,-97.86,17.6,5.82
155,Salinópolis,100,BR,1605322938,79,-0.61,-47.36,80.69,10.71
156,Brazzaville,20,CG,1605322938,94,-4.27,15.28,75.2,4.05
157,Torbay,75,CA,1605322939,86,47.67,-52.73,37.99,2.24
158,Bengkulu,85,ID,1605322939,64,-3.8,102.27,86.02,1.7
159,Guerrero Negro,0,MX,1605322939,73,27.98,-114.06,63.75,12.64
160,Sept-Îles,75,CA,1605322940,83,50.2,-66.38,34.0,6.93
161,Barcelos,75,PT,1605322940,82,41.54,-8.62,57.2,8.05
162,Tsiroanomandidy,0,MG,1605322940,75,-18.77,46.03,69.8,3.33
163,Noumea,40,NC,1605322864,52,-22.28,166.46,91.4,11.41
164,Roman,20,RO,1605322941,92,46.92,26.92,42.8,3.36
165,Ranot,100,TH,1605322941,74,7.78,100.32,83.44,11.48
166,Mehamn,1,NO,1605322942,88,71.04,27.85,34.11,11.12
167,Peniche,89,PT,1605322942,88,39.36,-9.38,62.01,3.0
168,Sorochinsk,25,RU,1605322942,97,52.43,53.16,18.72,5.48
169,Nanning,0,CN,1605322943,46,22.82,108.32,71.6,6.71
170,Comodoro Rivadavia,0,AR,1605322943,37,-45.87,-67.5,66.2,16.11
171,Nishihara,75,JP,1605322943,83,26.18,127.76,78.8,8.05
172,Ulaangom,90,MN,1605322944,88,49.98,92.07,26.73,1.92
173,Dikson,100,RU,1605322944,94,73.51,80.55,4.69,22.95
174,Belmonte,40,BR,1605322944,78,-15.86,-38.88,77.0,5.82
175,Leningradskiy,75,RU,1605322945,90,69.38,178.42,7.47,12.35
176,Qaanaaq,76,GL,1605322945,76,77.48,-69.36,1.69,5.99
177,Haines Junction,98,CA,1605322945,92,60.75,-137.51,12.2,1.12
178,Barrow,90,US,1605322872,73,71.29,-156.79,19.4,14.99
179,Serowe,12,BW,1605322946,69,-22.38,26.72,65.8,5.08
180,Vanimo,59,PG,1605322946,71,-2.67,141.3,85.1,5.48
181,Oussouye,0,SN,1605322946,50,12.48,-16.55,76.46,4.68
182,Bac Lieu,94,VN,1605322946,67,9.29,105.72,83.03,6.64
183,Kahului,40,US,1605322802,54,20.89,-156.47,82.4,23.04
184,Strelka,99,RU,1605322947,96,58.07,93.03,21.83,4.94
185,Bukama,100,CD,1605322947,94,-9.2,25.85,70.0,2.01
186,Copiapó,13,CL,1605322947,82,-27.37,-70.33,57.2,13.87
187,Farah,100,AF,1605322947,82,32.5,62.5,47.39,4.41
188,Souillac,75,MU,1605322948,94,-20.52,57.52,73.4,8.05
189,Byron Bay,0,AU,1605322948,58,-28.65,153.62,93.0,18.34
190,Ruska Poliana,57,UA,1605322948,91,49.42,31.92,32.41,3.6
191,Sobolevo,100,RU,1605322949,96,54.43,31.9,29.05,7.52
192,Mastic Beach,1,US,1605322949,87,40.77,-72.85,46.4,6.93
193,Poum,7,NC,1605322950,83,-20.23,164.02,77.68,17.85
194,Bar Harbor,90,US,1605322818,100,44.39,-68.2,41.0,6.93
195,Fortuna,75,US,1605322855,100,40.6,-124.16,50.0,4.7
196,Tiksi,96,RU,1605322950,92,71.69,128.87,-5.91,2.89
197,Cabo San Lucas,20,MX,1605322732,56,22.89,-109.91,75.2,10.29
198,Tasiilaq,100,GL,1605322951,52,65.61,-37.64,19.4,4.7
199,Bridlington,100,GB,1605322951,87,54.08,-0.19,46.4,9.17
200,Vardø,30,NO,1605322951,84,70.37,31.11,36.23,26.31
201,Oskaloosa,1,US,1605322952,80,41.3,-92.64,33.8,8.05
202,Eyrarbakki,40,IS,1605322952,74,63.86,-21.15,35.6,8.05
203,Lebu,17,CL,1605322952,89,-37.62,-73.65,50.94,9.06
204,Longyearbyen,75,SJ,1605322953,80,78.22,15.64,30.2,5.82
205,Puerto Ayora,67,EC,1605322953,89,-0.74,-90.35,70.0,7.0
206,Khovd,6,MN,1605322953,65,48.01,91.64,34.77,5.32
207,Ola,100,RU,1605322954,93,59.58,151.28,20.43,19.8
208,Clyde River,90,CA,1605322954,72,70.47,-68.59,14.0,16.11
209,Port Hedland,0,AU,1605322954,28,-20.32,118.57,96.8,18.34
210,São João da Barra,100,BR,1605322955,96,-21.64,-41.05,73.04,8.39
211,Merrill,1,US,1605322955,73,45.18,-89.68,24.8,3.36
212,Calca,42,PE,1605322955,62,-13.33,-71.95,55.9,2.57
213,Margate,100,GB,1605322660,78,51.38,1.39,51.01,1.01
214,Huarmey,70,PE,1605322956,85,-10.07,-78.15,63.21,8.43
215,Walvis Bay,3,NA,1605322956,87,-22.96,14.51,61.0,3.36
216,Saint-Pierre,0,RE,1605322957,73,-21.34,55.48,77.0,5.82
217,Touros,40,BR,1605322957,88,-5.2,-35.46,77.0,6.93
218,Laguna,90,US,1605322957,87,38.42,-121.42,53.6,8.05
219,Vestmannaeyjar,0,IS,1605322865,78,63.44,-20.27,37.51,21.85
220,Port Lincoln,4,AU,1605322958,56,-34.73,135.87,68.36,11.36
221,Skibbereen,75,IE,1605322958,100,51.55,-9.27,48.2,12.75
222,Csemő,90,HU,1605322959,81,47.12,19.69,45.0,2.24
223,Constitución,15,CL,1605322959,87,-35.33,-72.42,52.39,7.96
224,Kosa,11,RU,1605322960,95,59.94,55.0,6.42,4.14
225,San Quintín,0,MX,1605322960,72,30.48,-115.95,61.99,13.67
226,Payakumbuh,92,ID,1605322960,63,-0.22,100.63,83.84,2.48
227,Huanren,0,CN,1605322961,47,41.26,125.37,49.1,4.0
228,Orica,2,HN,1605322961,88,14.7,-86.95,66.11,2.8
229,Sitka,90,US,1605322961,86,57.05,-135.33,37.4,6.04
230,Swellendam,52,ZA,1605322961,87,-34.02,20.44,51.8,3.36
231,Bandarbeyla,76,SO,1605322962,79,9.49,50.81,75.16,17.49
232,Kirakira,23,SB,1605322962,68,-10.45,161.92,85.84,3.74
233,Dongying,100,CN,1605322962,49,37.46,118.49,60.82,6.11
234,Lagoa,98,PT,1605322962,91,39.05,-27.98,65.84,16.4
235,Birin,0,NP,1605322963,59,26.89,88.07,62.62,2.21
236,Weyburn,100,CA,1605322963,79,49.67,-103.85,28.4,19.46
237,Ancud,20,CL,1605322963,81,-41.87,-73.82,48.2,3.36
238,Champerico,0,GT,1605322964,97,14.3,-91.92,68.0,4.88
239,Bambamarca,82,PE,1605322964,73,-6.68,-78.53,54.72,2.86
240,Kindu,100,CD,1605322964,95,-2.95,25.95,66.92,1.16
241,Masuda,20,JP,1605322964,63,34.67,131.85,62.6,6.93
242,Taltal,7,CL,1605322861,74,-25.4,-70.48,57.38,3.02
243,Athabasca,100,CA,1605322965,85,54.72,-113.29,15.8,1.12
244,Nianzishan,0,CN,1605322965,80,47.52,122.88,44.01,8.01
245,Maţāy,0,EG,1605322965,87,28.42,30.78,61.63,11.03
246,Arraial do Cabo,100,BR,1605322966,94,-22.97,-42.03,73.33,4.83
247,The Valley,20,AI,1605322966,78,18.22,-63.06,80.6,11.41
248,Zvenyhorodka,92,UA,1605322966,76,49.08,30.97,37.53,4.27
249,Port Hardy,75,CA,1605322966,86,50.7,-127.42,42.8,8.05
250,Langxiang,0,CN,1605322967,63,46.95,128.88,41.45,3.65
251,Cherskiy,100,RU,1605322967,88,68.75,161.3,-8.34,6.69
252,Sulangan,0,PH,1605322967,75,11.14,123.72,83.98,9.42
253,Bam,92,IR,1605322967,75,29.11,58.36,52.16,11.3
254,Batagay-Alyta,86,RU,1605322968,89,67.8,130.41,-5.51,1.77
255,Yuanping,75,CN,1605322968,43,38.72,112.76,51.33,3.0
256,Ayan,88,RU,1605322968,94,56.45,138.17,25.36,0.69
257,Swan Hill,0,AU,1605322968,29,-35.34,143.55,74.75,9.75
258,Alyangula,0,AU,1605322969,44,-13.85,136.42,95.0,11.41
259,Ferme-Neuve,0,CA,1605322969,86,46.7,-75.45,30.2,1.12
260,Brae,20,GB,1605322970,76,60.4,-1.35,48.2,23.04
261,Wakkanai,75,JP,1605322970,70,45.41,141.67,42.8,24.16
262,Mount Gambier,75,AU,1605322970,59,-37.83,140.77,64.4,8.05
263,Pacifica,90,US,1605322865,82,37.61,-122.49,57.2,13.87
264,Manono,88,CD,1605322970,95,-7.3,27.42,69.55,1.07
265,High Level,75,CA,1605322971,100,58.52,-117.14,15.8,16.11
266,Lüderitz,70,NA,1605322971,91,-26.65,15.16,57.18,4.36
267,Batemans Bay,49,AU,1605322842,53,-35.72,150.18,73.0,5.01
268,Koróni,20,GR,1605322819,93,36.8,21.95,57.99,5.82
269,Kaeo,0,NZ,1605322972,52,-35.1,173.78,69.22,7.9
270,San Policarpo,1,PH,1605322973,84,12.18,125.51,83.48,11.34
271,Tomatlán,3,MX,1605322973,93,19.93,-105.25,72.27,2.33
272,Mar del Plata,0,AR,1605322973,88,-38.0,-57.56,64.99,6.93
273,Srednekolymsk,99,RU,1605322973,88,67.45,153.68,-6.18,1.5
274,Bilibino,100,RU,1605322974,87,68.05,166.44,-10.97,1.3
275,Portland,47,US,1605322325,86,45.52,-122.68,45.0,1.99
276,Gīdolē,3,ET,1605322974,98,5.65,37.37,55.47,3.04
277,Nagybajom,90,HU,1605322974,100,46.39,17.51,44.6,3.36
278,Kimbe,76,PG,1605322975,76,-5.55,150.14,85.3,3.44
279,Chicama,84,PE,1605322975,84,-7.84,-79.15,62.91,6.29
280,Mareeba,29,AU,1605322794,58,-17.0,145.43,91.0,10.29
281,Séguéla,60,CI,1605322698,52,7.96,-6.67,69.6,2.06
282,Yar-Sale,0,RU,1605322976,91,66.83,70.83,-4.4,4.34
283,Yugo-Kamskiy,40,RU,1605322976,85,57.71,55.59,17.6,4.47
284,Micheldorf,75,AT,1605322976,93,46.92,14.44,37.4,2.24
285,Miraflores,5,MX,1605322976,30,19.22,-98.81,69.8,6.93
286,Luanda,100,AO,1605322805,79,-8.84,13.23,77.23,5.77
287,Khon Buri,99,TH,1605322977,86,14.53,102.25,75.99,10.8
288,Shumerlya,64,RU,1605322977,98,55.5,46.41,27.41,3.67
289,Ardakān,90,IR,1605322977,87,32.31,54.02,46.4,6.93
290,Iqaluit,90,CA,1605322917,67,63.75,-68.51,17.6,5.82
291,Banjar,40,ID,1605322978,74,-8.19,114.97,87.8,10.29
292,Geraldton,75,AU,1605322978,64,-28.77,114.6,71.6,12.75
293,Mizdah,0,LY,1605322978,85,31.45,12.98,53.02,2.24
294,Inzhavino,100,RU,1605322979,94,52.32,42.49,33.28,5.32
295,Urgut,90,UZ,1605322979,74,39.4,67.24,33.8,4.7
296,Rafsanjān,100,IR,1605322979,69,30.41,55.99,47.25,12.33
297,Ébolowa,99,CM,1605322980,93,2.9,11.15,70.7,2.89
298,Kyrenia,40,CY,1605322980,67,35.34,33.32,59.0,5.82
299,Hong Kong,99,HK,1605322977,57,22.29,114.16,77.0,1.01
300,São Luiz Gonzaga,0,BR,1605322981,68,-28.41,-54.96,68.13,7.2
301,Katangli,90,RU,1605322981,87,51.71,143.23,34.27,17.13
302,Mahibadhoo,100,MV,1605322921,83,3.78,72.97,80.91,15.14
303,Buala,28,SB,1605322981,66,-8.14,159.59,86.54,3.56
304,Hudson Bay,100,CA,1605322981,95,52.85,-102.38,20.14,6.42
305,Isernia,0,IT,1605322982,91,41.6,14.24,51.01,1.43
306,Elliot Lake,90,CA,1605322982,51,46.38,-82.63,37.4,11.41
307,Ol'ga,0,RU,1605322982,50,43.74,135.29,46.69,9.31
308,Chara,2,RU,1605322982,88,56.91,118.26,20.43,5.84
309,Kiryat Gat,20,IL,1605322983,67,31.61,34.76,66.99,2.24
310,Idah,1,NG,1605322983,87,7.11,6.73,74.43,1.7
311,Husavik,90,IS,1605322983,86,66.04,-17.34,26.6,11.07
312,Sooke,30,CA,1605322983,81,48.37,-123.73,46.4,34.45
313,Barreiras,59,BR,1605322944,59,-12.15,-44.99,73.92,2.37
314,Yerbogachën,99,RU,1605322984,93,61.28,108.01,11.44,12.15
315,Ubatuba,75,BR,1605322770,100,-23.43,-45.07,66.2,3.36
316,Jovellar,3,PH,1605322984,69,13.07,123.6,87.01,9.42
317,Amapá,3,BR,1605322984,95,1.0,-52.0,73.71,3.67
318,Bethel,1,US,1605322985,93,41.37,-73.41,39.0,4.7
319,Harper,13,LR,1605322985,86,4.38,-7.72,77.56,6.15
320,Znojmo,99,CZ,1605322985,96,48.86,16.05,43.0,2.51
321,Rio Grande,16,BR,1605322814,90,-32.03,-52.1,66.0,5.91
322,Svelgen,99,NO,1605322985,81,61.77,5.3,48.2,21.92
323,San Angelo,1,US,1605322986,67,31.46,-100.44,63.0,7.76
324,Aksarka,0,RU,1605322986,91,66.56,67.8,-5.84,5.84
325,Fort Nelson,90,CA,1605322986,78,58.81,-122.7,17.6,5.82
326,Pisco,0,PE,1605322986,82,-13.7,-76.22,64.4,11.41
327,Puerto Escondido,75,MX,1605322987,69,15.85,-97.07,82.4,3.69
328,Saint Anthony,1,US,1605322987,69,45.02,-93.22,33.8,10.29
329,Naze,75,JP,1605322987,74,28.37,129.48,78.8,13.87
330,Gigmoto,35,PH,1605322987,81,13.78,124.39,83.84,11.56
331,Akdepe,0,TM,1605322987,93,42.06,59.38,32.0,9.17
332,Sistranda,0,NO,1605322988,66,63.73,8.83,48.2,17.22
333,Port Blair,50,IN,1605322988,79,11.67,92.75,83.8,17.69
334,George Town,20,MY,1605322988,78,5.41,100.34,86.0,2.24
335,College,75,US,1605322988,78,64.86,-147.8,15.8,2.28
336,Acaraú,7,BR,1605322927,79,-2.89,-40.12,80.4,17.85
337,Egvekinot,4,RU,1605322989,91,66.32,-179.17,6.12,14.7
338,Guanare,100,VE,1605322989,93,9.04,-69.74,73.74,2.08
339,Villarrica,0,PY,1605322989,53,-25.75,-56.43,74.01,2.82
340,Breves,46,BR,1605322818,88,-1.68,-50.48,77.0,5.06
341,Shahr-e Bābak,68,IR,1605322990,73,30.12,55.12,45.73,6.04
342,Lesogorsk,54,RU,1605322990,92,56.05,99.51,23.49,4.16
343,Ilulissat,98,GL,1605322990,53,69.22,-51.1,21.2,8.05
344,Rāmpura,100,IN,1605322990,25,30.25,75.23,67.24,1.23
345,Kostanay,40,KZ,1605322844,85,53.17,63.58,12.2,8.95
346,Lompoc,1,US,1605322821,81,34.64,-120.46,53.6,9.17
347,Poputnaya,69,RU,1605322991,80,44.51,41.44,35.78,6.22
348,Alofi,75,NU,1605322991,66,-19.06,-169.92,84.2,17.22
349,Muriti,75,TZ,1605322992,83,-1.98,32.92,71.6,9.66
350,Pangody,2,RU,1605322992,91,65.85,74.49,-9.94,2.55
351,Padang,66,ID,1605322992,60,-0.95,100.35,86.88,2.64
352,Oktyabr'skoye,0,RU,1605322993,100,43.06,44.74,23.0,8.95
353,Ostrovnoy,99,RU,1605322993,90,68.05,39.51,34.57,12.37
354,Kurgan,92,RU,1605322993,97,55.45,65.33,19.51,9.42
355,Cho Dok,80,VN,1605322781,69,10.7,105.12,83.1,10.67
356,Shillong,20,IN,1605322924,94,25.57,91.88,73.4,8.05
357,Pacific Grove,90,US,1605322994,63,36.62,-121.92,60.8,3.36
358,Purpe,44,RU,1605322994,90,64.48,76.69,-14.3,5.17
359,Hervey Bay,0,AU,1605322994,51,-25.3,152.85,86.0,17.22
360,Faanui,13,PF,1605322994,72,-16.48,-151.75,80.13,5.91
361,Bang Mun Nak,23,TH,1605322995,58,16.03,100.38,82.99,1.3
362,Maykor,0,RU,1605322995,94,59.01,55.88,11.12,5.41
363,Algeciras,100,ES,1605322995,93,36.13,-5.45,64.4,6.93
364,Pitimbu,40,BR,1605322995,88,-7.47,-34.81,77.0,8.05
365,Pathein,0,MM,1605322996,70,16.78,94.73,80.76,11.7
366,Manatí,63,PR,1605322996,96,18.43,-66.49,77.0,8.21
367,Emerald,0,AU,1605322996,38,-23.53,148.17,95.0,8.05
368,Merauke,0,ID,1605322996,60,-8.47,140.33,86.99,13.47
369,Kovdor,100,RU,1605322997,94,67.57,30.48,34.34,8.79
370,Salalah,0,OM,1605322997,78,17.02,54.09,73.4,3.36
371,Mil'kovo,100,RU,1605322997,87,54.72,158.62,27.3,4.0
372,Trelleborg,90,SE,1605322997,100,55.38,13.16,50.0,6.93
373,Sivas Province,0,TR,1605322998,58,39.79,37.0,28.4,5.82
374,Carahue,0,CL,1605322998,100,-38.7,-73.17,42.8,2.77
375,Sovetskiy,18,RU,1605322829,90,61.36,63.58,11.17,6.76
376,Santa Isabel Rio Negro,100,BR,1605322998,96,-0.41,-65.02,75.07,2.93
377,Isiro,51,CD,1605322999,96,2.77,27.62,64.26,1.16
378,Burgeo,100,CA,1605322999,69,47.62,-57.62,40.01,13.71
379,Maués,80,BR,1605322999,70,-3.38,-57.72,80.26,1.12
380,Idukki,71,IN,1605322999,80,9.85,76.97,73.58,4.88
381,Staraya Russa,44,RU,1605323000,95,57.99,31.36,31.14,4.79
382,Pendleton,1,US,1605323000,70,45.67,-118.79,43.0,27.51
383,Udimskiy,100,RU,1605323000,98,61.14,45.91,27.18,3.78
384,Pangnirtung,31,CA,1605323000,82,66.15,-65.71,3.34,4.16
385,Okhotsk,86,RU,1605323000,92,59.38,143.3,14.88,9.95
386,Nanortalik,100,GL,1605323001,87,60.14,-45.24,28.92,8.01
387,Cape Canaveral,75,US,1605322921,94,28.41,-80.6,75.2,5.82
388,Mulegé,0,MX,1605323001,76,26.88,-111.98,62.78,2.71
389,São Félix do Xingu,82,BR,1605322842,84,-6.64,-51.99,74.73,1.5
390,Alice Springs,0,AU,1605322993,11,-23.7,133.88,104.0,12.75
391,Necochea,100,AR,1605323002,91,-38.55,-58.74,64.0,3.0
392,Praia,0,CV,1605322804,88,14.92,-23.51,75.2,11.41
393,Ous,41,RU,1605323002,90,60.91,61.52,12.58,6.91
394,San Francisco,90,US,1605322987,82,37.77,-122.42,57.2,13.87
395,Sørland,18,NO,1605323003,71,67.67,12.69,43.48,15.88
396,Bilma,0,NE,1605323003,30,18.69,12.92,68.38,15.17
397,Callaway,1,US,1605323003,52,30.15,-85.57,68.0,3.36
398,Malabo,20,GQ,1605323003,100,3.75,8.78,77.0,3.87
399,Asău,0,RO,1605323004,97,46.43,26.4,36.0,3.74
400,Pokrovskoye,4,RU,1605323004,85,47.42,38.9,33.71,7.52
401,Saldanha,13,ZA,1605323004,67,-33.01,17.94,62.6,2.24
402,Muros,93,ES,1605323004,82,42.78,-9.06,60.01,8.01
403,Cayenne,0,GF,1605323004,100,4.93,-52.33,77.0,9.82
404,Klaksvík,35,FO,1605323005,87,62.23,-6.59,44.6,9.17
405,Nortelândia,15,BR,1605323005,86,-14.45,-56.8,73.96,2.66
406,Machilipatnam,75,IN,1605323006,73,16.17,81.13,75.2,6.93
407,Petatlán,0,MX,1605323006,84,17.52,-101.27,75.42,2.57
408,Djougou,0,BJ,1605323006,29,9.71,1.67,71.8,5.48
409,Hokitika,78,NZ,1605323006,70,-42.72,170.97,58.14,4.45
410,Hamilton,1,US,1605323007,52,39.18,-84.53,42.01,5.82
411,Kamenka,100,RU,1605323007,95,51.32,42.77,28.99,4.45
412,San Matías,100,BO,1605323007,72,-16.37,-58.4,77.16,5.7
413,Mersin Province,0,TR,1605322922,81,36.86,34.65,53.6,3.71
414,Shelburne,90,CA,1605323007,69,44.08,-80.2,39.2,8.05
415,Imbituba,40,BR,1605323008,88,-28.24,-48.67,71.6,3.36
416,Havre-St-Pierre,90,CA,1605323008,92,50.23,-63.6,30.2,6.93
417,Aranos,80,NA,1605323008,40,-24.13,19.12,74.08,6.02
418,Narovchat,92,RU,1605323008,99,53.88,43.69,30.51,5.12
419,Loikaw,0,MM,1605323008,66,19.67,97.21,75.96,2.28
420,Haapiti,20,PF,1605323009,70,-17.57,-149.87,84.2,11.41
421,Kuah,20,MY,1605323009,74,6.33,99.84,86.0,2.24
422,Magione,90,IT,1605323009,97,43.14,12.21,52.0,1.43
423,Ucluelet,0,CA,1605323009,79,48.93,-125.55,44.01,1.99
424,Al Bardīyah,83,LY,1605323010,69,31.76,25.09,65.61,8.7
425,Yibin,4,CN,1605323010,51,28.77,104.62,73.38,0.89
426,Yoichi,75,JP,1605323010,70,43.2,140.77,46.0,12.75
427,Caher,100,IE,1605323010,91,52.38,-7.92,51.01,1.99
428,San Cristobal,100,VE,1605323010,92,7.77,-72.22,67.93,0.34
429,Tautira,20,PF,1605322961,70,-17.73,-149.15,84.2,11.41
430,Pangoa,74,PE,1605323011,95,-12.12,-73.0,68.59,3.6
431,Lata,79,PT,1605323011,90,40.16,-8.33,59.0,1.01
432,Beisfjord,19,NO,1605323011,52,68.38,17.6,41.0,18.34
433,Ca Mau,90,VN,1605323012,61,9.18,105.15,85.35,5.7
434,Mendoza,40,AR,1605322840,68,-32.89,-68.83,69.8,12.75
435,Tarauacá,100,BR,1605323012,78,-8.16,-70.77,77.23,1.74
436,Dzaoudzi,0,YT,1605323012,88,-12.79,45.27,77.0,3.36
437,Podgornoye,75,RU,1605323012,86,51.73,39.15,30.2,4.47
438,Havelock,90,US,1605323013,87,34.88,-76.9,59.0,4.7
439,Igarka,81,RU,1605323013,87,67.47,86.58,-19.95,4.74
440,Ekhabi,76,RU,1605323013,90,53.51,142.97,32.79,14.83
441,Manicoré,35,BR,1605323014,79,-5.81,-61.3,78.42,0.81
442,Kampene,100,CD,1605323014,89,-3.6,26.67,68.43,2.44
443,Digha,0,IN,1605323014,61,21.68,87.55,77.58,9.46
444,La Peca,100,PE,1605323014,76,-5.61,-78.44,71.26,1.88
445,Beian,0,NO,1605323015,66,63.66,9.57,48.2,17.22
446,Shimoda,20,JP,1605323015,48,34.67,138.95,64.4,16.11
447,Breaza,2,RO,1605323015,82,45.18,25.67,41.0,3.49
448,Umluj,0,SA,1605323015,59,25.02,37.27,72.01,1.41
449,Galich,100,RU,1605323016,97,58.38,42.35,33.73,1.1
450,Gheorgheni,20,RO,1605323016,84,46.72,25.62,32.0,1.5
451,Teya,89,RU,1605323016,94,60.38,92.63,11.37,3.76
452,Onalaska,1,US,1605323016,55,43.88,-91.24,33.8,12.75
453,Ilhabela,93,BR,1605322887,88,-23.78,-45.36,71.85,2.04
454,Gwanda,0,ZW,1605323017,68,-20.93,29.0,63.84,4.59
455,Sur,0,OM,1605323017,43,22.57,59.53,74.66,3.91
456,Tuatapere,100,NZ,1605323017,49,-46.13,167.68,68.0,15.01
457,Kruisfontein,0,ZA,1605323018,79,-34.0,24.73,59.0,3.0
458,Kohtla-Nõmme,84,EE,1605323018,88,59.35,27.18,35.26,9.33
459,Mwinilunga,100,ZM,1605323018,95,-11.74,24.43,62.37,0.89
460,Choix,0,MX,1605323018,60,26.71,-108.32,66.76,1.39
461,Nouadhibou,0,MR,1605323019,43,20.93,-17.03,73.4,10.29
462,Aste,100,IT,1605323019,85,45.79,11.1,48.0,2.84
463,Troitskoye,96,RU,1605323019,85,52.98,84.68,28.9,8.37
464,Naantali,20,FI,1605323019,100,60.47,22.02,39.2,6.93
465,Tucumcari,1,US,1605323020,42,35.17,-103.72,46.4,10.29
466,Santa Teresa del Tuy,40,VE,1605323020,88,10.23,-66.66,78.8,5.82
467,Sinnamary,100,GF,1605323020,84,5.38,-52.95,79.86,10.94
468,Cairns,18,AU,1605323020,58,-16.92,145.77,88.0,10.29
469,Matara,95,LK,1605323021,78,5.95,80.54,81.5,3.13
470,Palmer,90,US,1605323021,93,42.16,-72.33,39.0,3.06
471,Nome,1,US,1605323021,67,64.5,-165.41,19.4,10.29
472,Dwārka,0,IN,1605323021,50,22.24,68.97,79.57,10.56
473,Firovo,100,RU,1605323022,92,57.48,33.7,35.98,5.48
474,Lumphat,100,KH,1605323022,73,13.49,106.98,81.57,1.86
475,Toyooka,40,JP,1605323022,58,35.53,134.83,57.2,9.17
476,Ilo,56,PE,1605323023,76,-17.64,-71.34,64.22,4.52
477,Bathsheba,20,BB,1605323023,88,13.22,-59.52,78.8,6.93
478,Khuzdar,38,PK,1605322881,38,27.74,66.64,61.02,2.53
479,Barra de Tecoanapa,9,MX,1605323023,79,16.52,-98.75,80.24,5.64
480,Mindelo,20,CV,1605323024,78,16.89,-24.98,77.0,10.29
481,Kathu,20,TH,1605323024,74,7.92,98.33,84.99,11.41
482,Mercedes,64,AR,1605323024,72,-34.65,-59.43,69.01,4.0
483,Verkhniy Baskunchak,0,RU,1605323024,95,48.23,46.72,29.39,7.81
484,Miyako,0,JP,1605323024,45,39.64,141.95,53.89,6.62
485,Nilópolis,90,BR,1605323025,94,-22.81,-43.41,75.2,3.36
486,Dalvik,90,IS,1605323025,86,65.97,-18.53,26.6,7.38
487,Rognan,0,NO,1605323025,52,67.1,15.39,46.4,17.22
488,Navrongo,0,GH,1605323026,24,10.9,-1.09,73.94,8.14
489,Russell,1,US,1605323026,87,32.35,-85.2,66.2,4.79
490,Syamzha,100,RU,1605323026,98,60.02,41.06,32.23,3.62
491,Nemuro,75,JP,1605322972,52,43.32,145.57,46.4,11.41
492,São Bartolomeu de Messines,90,PT,1605323026,100,37.26,-8.29,60.01,6.93
493,Agadez,0,NE,1605323027,34,19.75,10.25,63.99,12.75
494,Los Barrios,100,ES,1605323027,93,36.18,-5.49,64.4,6.93
495,Quimper,90,FR,1605323027,87,48.0,-4.1,57.2,12.75
496,Banda Aceh,69,ID,1605323027,71,5.56,95.32,82.78,3.51
497,Lander,75,US,1605323028,44,42.83,-108.73,41.0,10.29
498,Katherine,49,AU,1605323028,44,-14.47,132.27,95.0,11.41
499,Ixtapa,5,MX,1605323028,73,20.7,-105.2,77.0,4.7
500,Bullhead City,1,US,1605323029,22,35.15,-114.57,66.0,6.93
501,Suntar,100,RU,1605323029,96,62.14,117.63,17.71,6.4
502,Kholtoson,100,RU,1605323029,91,50.3,103.31,24.82,3.2
503,Moratuwa,40,LK,1605322899,94,6.77,79.88,77.0,3.36
504,Conde,40,BR,1605323029,88,-7.26,-34.91,77.0,8.05
505,Sangīn,100,AF,1605323030,86,32.07,64.84,53.71,6.22
506,Port-Gentil,100,GA,1605323030,86,-0.72,8.78,77.52,8.16
507,Ellisras,1,ZA,1605323030,37,-23.66,27.74,66.27,3.29
508,Togur,54,RU,1605323030,97,58.36,82.83,18.28,3.51
509,Eureka,43,US,1605323030,94,40.8,-124.16,48.99,3.87
510,Ugoofaaru,100,MV,1605323031,81,5.67,73.0,80.71,10.49
511,Neepawa,5,CA,1605323031,85,50.23,-99.47,17.6,5.82
512,Torit,0,SS,1605323031,76,4.41,32.57,71.74,1.61
513,Turaif,0,SA,1605323031,76,31.67,38.66,53.6,6.93
514,Gornoye Loo,100,RU,1605323032,70,43.71,39.6,46.99,4.47
515,Flin Flon,100,CA,1605323032,97,54.77,-101.86,16.93,7.65
516,Davlekanovo,75,RU,1605323032,85,54.22,55.03,17.6,8.95
517,Nānākuli,1,US,1605323033,48,21.39,-158.15,84.2,10.29
518,Ramon,83,PH,1605322951,77,16.78,121.53,82.94,3.78
519,Tilichiki,0,RU,1605323033,91,60.47,166.1,8.53,7.31
520,Medveda,0,RU,1605323033,92,56.51,92.41,12.2,5.73
521,Puquio,0,PE,1605323033,51,-14.7,-74.13,50.88,1.12
522,Strezhevoy,85,RU,1605322738,92,60.73,77.59,8.6,6.71
523,Monte Alegre,100,BR,1605323034,84,-2.01,-54.07,77.77,3.31
524,Lere,62,NG,1605323034,39,10.39,8.57,67.91,4.94
525,Matala,89,PH,1605323034,79,13.83,121.15,84.99,4.0
526,Songyuan,0,CN,1605323034,46,45.12,124.86,46.56,11.56
527,Mahina,20,PF,1605323035,70,-17.51,-149.49,84.2,11.41
528,Gualdo Tadino,59,IT,1605323035,100,43.23,12.78,48.2,6.93
529,Bandar-e Anzali,93,IR,1605323035,83,37.47,49.46,55.74,5.37
530,Taozhuang,97,CN,1605323035,59,34.85,117.33,62.55,10.63
531,Bull Savanna,49,JM,1605323035,87,17.89,-77.59,76.08,7.27
532,Edmonton,100,CA,1605322804,68,53.55,-113.47,24.8,3.36
533,Henties Bay,3,NA,1605323036,86,-22.12,14.28,61.0,2.62
534,Barranca,81,PE,1605322980,85,-10.75,-77.77,63.0,6.69
535,Fairbanks,75,US,1605323036,85,64.84,-147.72,15.8,2.15
536,Mongomo,92,GQ,1605323037,98,1.63,11.31,66.6,2.51
537,Lavrentiya,71,RU,1605323037,93,65.58,-171.0,23.59,15.28
538,Cao Bang,0,VN,1605323037,36,22.67,106.25,76.03,4.45
539,Taksimo,46,RU,1605323037,88,56.34,114.88,22.19,3.62
540,Nev'yansk,100,RU,1605323038,93,57.5,60.21,13.46,8.99
541,Sindou,0,BF,1605323038,24,10.67,-5.17,71.71,7.09
542,Cap-aux-Meules,100,CA,1605323038,75,47.38,-61.86,41.0,14.99
543,Tāybād,3,IR,1605323038,77,34.74,60.78,37.36,11.43
544,Qui Nhon,100,VN,1605323039,65,13.77,109.23,81.72,3.38
545,Maragogi,86,BR,1605323039,84,-9.01,-35.22,76.59,8.86
546,Jadu,0,LY,1605323039,74,31.95,12.03,52.99,6.98
547,Honningsvåg,20,NO,1605323039,79,70.98,25.97,38.64,28.05
548,Acajutla,0,SV,1605323040,94,13.59,-89.83,73.0,7.0
549,Gamba,100,GA,1605323040,91,-2.65,10.0,75.02,2.91
550,Kashgar,75,CN,1605323040,30,39.45,75.98,41.0,6.71
551,Shiyan,0,CN,1605323040,42,32.65,110.78,57.99,1.01
552,Kingsport,1,US,1605322815,61,36.55,-82.56,48.2,4.7
553,Somerset,20,US,1605323035,100,40.57,-74.55,45.0,3.36
554,Rossosh',99,RU,1605323041,92,51.12,38.51,30.4,1.45
555,Manadhoo,100,MV,1605323041,75,5.77,73.38,82.45,10.87
556,Sorong,18,ID,1605323041,73,-0.88,131.25,83.97,2.62
557,Dunda,8,TZ,1605323042,80,-8.12,34.25,66.72,3.11
558,Azamgarh,0,IN,1605323042,31,26.06,83.19,76.26,3.74
559,Khuzhir,65,RU,1605323042,87,53.19,107.34,26.94,10.8
560,Homer,90,US,1605322974,59,59.64,-151.55,39.0,3.36
561,Birao,14,CF,1605323042,29,10.28,22.79,69.24,6.62
